[
  {
    "type": "Sport i rekreacija",
    "city": "Loznica",
    "latitude": 44.568167,
    "longitude": 19.182361,
    "name": "Branjevo",
    "address":  "Loznica, Loznica, Centralna Srbija",
    "description": "",
    "img": ""
  },
  {
    "type": "Sport i rekreacija",
    "city": "Loznica",
    "latitude": 44.538135,
    "longitude": 19.231554,
    "name": "Park",
    "address":  "Loznica, Loznica, Centralna Srbija",
    "description": "",
    "img": ""
  },
  {
    "type": "Sport i rekreacija",
    "city": "Loznica",
    "latitude": 44.538135,
    "longitude": 19.231554,
    "name": "Lagator",
    "address":  "Loznica, Loznica, Centralna Srbija",
    "description": "",
    "img": ""
  },
  {
    "type": "Sport i rekreacija",
    "city": "Loznica",
    "latitude": 44.534269,
    "longitude": 19.222593,
    "name": "Park",
    "address":  "Loznica, Loznica, Centralna Srbija",
    "description": "",
    "img": ""
  },
  {
    "type": "Sport i rekreacija",
    "city": "Loznica",
    "latitude": 44.532773,
    "longitude": 19.21845,
    "name": "Park",
    "address":  "Loznica, Loznica, Centralna Srbija",
    "description": "",
    "img": ""
  },
  {
    "type": "Sport i rekreacija",
    "city": "Loznica",
    "latitude": 44.535104,
    "longitude": 19.216468,
    "name": "Park",
    "address":  "Loznica, Loznica, Centralna Srbija",
    "description": "",
    "img": ""
  },
  {
    "type": "Crkve i Manastiri",
    "city": "Loznica",
    "latitude": 44.496792,
    "longitude": 19.270321,
    "name": "Crkva Svetog Arhangela Mihaila",
    "address":  "Saborište, Tršić, Loznica,Centralna Srbija",
    "description": "Crkva brvnara je najmlađi objekat na Saborištu. Posvećena je svetom arhangelu Mihailu, koji je bio i slava porodice Karadžić. Rađena je po projektu arhitekte Ranka Findrika, po ugledu na crkve kakve su u Srbiji gradili majstori Osaćani u 19. veku. Gradnja je započeta 1999. godine a crkva je svečano otvorena (i osveštana) 2003. na završnoj svečanosti 69. Vukovog sabora.",
    "img": "Data/img/Crkva-Svetog-Arhangela-Mihaila-768x512.jpg"
  },
  {
    "type": "Crkve i Manastiri",
    "city": "Loznica",
    "latitude": 44.459846,
    "longitude": 19.283584,
    "name": "Manastir Tronoša",
    "address":  "15302 Korenita, Loznica, Centralna Srbija",
    "description": "Manastir Tronoša podignut je 1317. godine, zadužbina je kralja Dragutina i njegove supruge Kataline. Manastirski kompleks čine: crkva posvećena Vavedenju Presvete Bogorodice, konak i Muzej ranog Vukovog školovanja. Stefan Jovanović (1759 – 1799) iguman manastira Tronoša proglašen je 2017. godine za sveca, Stefana Tronoškog. Ispred manastira se nalazi kapela Svetog Pantelejmona sa česmom devet Jugovića, podignuta u čast Jug Bogdana i njegovih sinova koji su, po legendi, pred odlazak na Kosovski boj tu prenoćili i napili se vode sa ovog izvora.",
    "img": "Data/img/Manastir-Tronosa-768x512.jpg",
    "phone": "+381 (0)15 846003"
  },
  {
    "type": "Crkve i Manastiri",
    "city": "Loznica",
    "latitude": 44.512576,
    "longitude": 19.160367,
    "name": "Crkva Svetih Apostola Petra i Pavla",
    "address":  "Zdravka Mašanovića bb , Banja Koviljača, Loznica, Centralna Srbija",
    "description": "Crkva Svetih Apostola Petra i Pavla u Banji Koviljači podignuta je 1975.godine. Pri hramu je osnovan i hor „Sabor srpskih svetitelja“.",
    "img": "Data/img/Crkva-Sv.-Apostola-Petra-i-Pavla-Banja-Koviljaca-44-512576-19-160367-768x576.jpg",
    "phone": "+381 (0)15 818100"
  },
  {
    "type": "Crkve i Manastiri",
    "city": "Loznica",
    "latitude": 44.530706,
    "longitude": 19.219488,
    "name": "Crkva Pokrova Presvete Bogorodice",
    "address":  "Janka Veselinovića 8, Loznica, Loznica, Centralna Srbija",
    "description": "Crkva Pokrova Presvete Bogorodice se nalazi u današnjem centru Loznice, a nekadašnjem utvrđenju „Loznički grad“. Podignuta je 1873.godine i izgrađena u srpsko vizantijskom stilu.",
    "img": "Data/img/Crkva-Pokrova-Presvete-Bogorodice-768x512.jpg",
    "phone": "+381 (0)15 884625"
  },
  {
    "type": "Crkve i Manastiri",
    "city": "Loznica",
    "latitude": 44.641699,
    "longitude": 19.396396,
    "name": "Manastir Čokešina",
    "address":  "Čokešina 15306 M.Prnjavor, Loznica, Centralna Srbija",
    "description": "Manastir Čokešina podignut je u prvoj polovini 15. veka. Ime je dobio po vlastelinu Bogdanu Čokeši, na čijem je imanju i sagrađen. Manastirski kompleks čine: crkva posvećena Rođenju Presvete Bogorodice, konak i spomenik podignut u znak sećanja na Boj na Čokešini. Na Lazarevu subotu 1804. godine odigrao se Boj na Čokešini kada je 1500 turskih plaćenika prešlo Drinu i kod manastira Čokešina se sukobilo sa 303 srpska hajduka pod komandom braće Nedić. U neravnopravnoj borbi izginuli su svi srpski hajduci, ali su Turci ipak zaustavljeni u daljem prodoru ka Šapcu i Beogradu. Ovaj boj u istoriji je upamćen kao srpski Termopili.",
    "img": "Data/img/Manastir-Cokesina-768x666.jpg",
    "phone": "+381 (0)15 833740"
  },
  {
    "type": "Parking",
    "city": "Loznica",
    "latitude": 44.531988,
    "longitude": 19.220758,
    "name": "Parking",
    "address": "Loznica, Vojvode Mišića, Loznica, Centralna Srbija",
    "description": "",
    "img": "",
    "phone": ""
  },
  {
    "type": "Parking",
    "city": "Loznica",
    "latitude": 44.5098513,
    "longitude": 19.154712,
    "name": "Parking",
    "address": "Banja Koviljača, Loznica, Centralna Srbija",
    "description": "",
    "img": "",
    "phone": ""
  },
  {
    "type": "Parking",
    "city": "Loznica",
    "latitude": 44.51252,
    "longitude": 19.159076,
    "name": "Parking",
    "address":  "Banja Koviljača, Loznica, Centralna Srbija",
    "description": "",
    "img": "",
    "phone": ""
  },
  {
    "type": "Parking",
    "city": "Loznica",
    "latitude": 44.499611,
    "longitude": 19.266557,
    "name": "Parking",
    "address":  "Tršić, Loznica, Centralna Srbija",
    "description": "",
    "img": "",
    "phone": ""
  },
  {
    "type": "Parking",
    "city": "Loznica",
    "latitude": 44.499611,
    "longitude": 19.266557,
    "name": "Parking",
    "address":  "Loznica, Loznica, Centralna Srbija",
    "description": "",
    "img": "",
    "phone": ""
  },
  {
    "type": "Kultura",
    "city": "Loznica",
    "latitude": 44.530931,
    "longitude": 19.224007,
    "name": "Spomenik Jovanu Cvijiću",
    "address":  "Trg Jovana Cvijića, Loznica, Loznica, Centralna Srbija",
    "description": "Jovan Cvijić rođen je u Loznici 1865. godine, smatra se utemeljivačem srpske geografije, bio je naučnik i osnivač Srpskog geografskog društva. Svojim geografskim radovima je zauzeo istaknuto mesto među evropskim naučnicima. Ceo svoj život je posvetio izučavanju Balkanskog poluostrva, ispitujući reljef, naselja, poreklo stanovništva, etničke i socijalne karakteristike. Umro je u Beogradu 1927. godine. U oktobru se održava manifestacija „Cvijićevi dani“ posvećena ovom velikanu.",
    "img": "Data/img/Jovan-Cvijic-crop-768x522.jpg",
    "phone": ""
  },
  {
    "type": "Kultura",
    "city": "Loznica",
    "latitude": 44.532951,
    "longitude": 19.222291,
    "name": "Spomenik Vuku Karadžiću",
    "address":  "Trg Vuka Karadžića , Loznica, Loznica, Centralna Srbija",
    "description": "Vuk Stefanović Karadžić rođen je u Tršiću 1787. godine. Bio je reformator srpskog jezika i pisma. Uveo je narodni jezik u književnost i stvorio fonetsku azbuku. Bio je istoriograf, jedan je od utemeljivača etnografije kod nas i najznačajniji sakupljač naših narodnih umotvorina. Umro je u Beču 1864. godine. U njegovu čast od 1933. godine u Tršiću se organizuje Vukov sabor, a od 1972. i Đački Vukov sabor.",
    "img": "Data/img/Spomenik-Vuku-Karadzicu-768x512.jpg",
    "phone": ""
  },
  {
    "type": "Kultura",
    "city": "Loznica",
    "latitude": 44.49852723258519,
    "longitude": 19.26777539492785,
    "name": "Vukova spomen kuća",
    "address":  "Tršić, Loznica, Centralna Srbija",
    "description": "Prvu kuću na mestu današnje Vukove spomen kuće sagradio je njegov deda Joksim 1739/40. godine. Prvobitna kuća bila je drvena pletara u kojoj se i Vuk rodio 8.11.1787. godine. Po Vukovom svedočenju, u toku Prvog srpskog ustanka „izgorelo mu je deset kuća“. Svakog proleća Turci su je palili a svake jeseni njegov otac Stefan obnavljao da bi mogli da prezime pod krovom. Poslednji put imanje Karadžića uništeno je 1813. godine, iste godine Vuk Karadžić je napustio Srbiju i preselio se u Beč. Obnova kuće započeta je 1933. godine, a obnovljeni spomen objekat ima kamenu osnovu (podrum i temelj), dok ostatak kuće je polu brvnara polu čatmara, koja je pokrivena hrastovom šindrom. Unutrašnjost kuće opremljena je predmetima kakvi su korišćeni krajem 18. i početkom 19. veka.",
    "img": "Data/img/Vukova-spomen-kuca-768x470.jpg",
    "phone": ""
  },
  {
    "type": "Smeštaj",
    "city": "Loznica",
    "latitude": 44.52741090527946,
    "longitude": 19.263521524198396,
    "name": "Lovački dom",
    "address":  "Brezik – Klupci granica, Loznica, Centralna Srbija",
    "description": "",
    "img": "",
    "phone": ""
  }
]
